has_lowG_data,lowG_data.ax,lowG_data.ay,lowG_data.az,lowG_data.gx,lowG_data.gy,lowG_data.gz,lowG_data.timeStamp_lowG,has_highG_data,highG_data.hg_ax,highG_data.hg_ay,highG_data.hg_az,highG_data.timeStamp_highG,has_gps_data,gps_data.latitude,gps_data.longitude,gps_data.altitude,gps_data.siv_count,gps_data.fix_type,gps_data.posLock,gps_data.timeStamp_GPS,has_barometer_data,barometer_data.temperature,barometer_data.pressure,barometer_data.altitude,barometer_data.timeStamp_barometer,has_kalman_data,kalman_data.kalman_pos_x,kalman_data.kalman_vel_x,kalman_data.kalman_acc_x,kalman_data.kalman_pos_y,kalman_data.kalman_vel_y,kalman_data.kalman_acc_y,kalman_data.kalman_pos_z,kalman_data.kalman_vel_z,kalman_data.kalman_acc_z,kalman_data.kalman_apo,kalman_data.timeStamp_state,has_rocketState_data,rocketState_data.rocketStates,rocketState_data.timestamp,has_flap_data,flap_data.extension,flap_data.timeStamp_flaps,has_voltage_data,voltage_data.v_battery,voltage_data.timestamp,has_orientation_data,orientation_data.accel.ax,orientation_data.accel.ay,orientation_data.accel.az,orientation_data.gyro.gx,orientation_data.gyro.gy,orientation_data.gyro.gz,orientation_data.magnet.mx,orientation_data.magnet.my,orientation_data.magnet.mz,orientation_data.angle.yaw,orientation_data.angle.pitch,orientation_data.angle.roll,orientation_data.timeStamp_orientation,has_magnetometer_data,magnetometer_data.magnetometer.mx,magnetometer_data.magnetometer.my,magnetometer_data.magnetometer.mz,magnetometer_data.timestamp,has_gas_data,gas_data.temp,gas_data.humidity,gas_data.pressure,gas_data.resistance,gas_data.timestamp
True,0.0,0.0,0.0,0.0,0.0,0.0,0,True,0.0,0.0,0.0,0,True,0.0,0.0,0.0,4,3,True,0,True,0.0,0.0,inf,0,False,0.0,0.0,0.0,0.0,0.0,0.0,0.0,0.0,0.0,0.0,0,True,STATE_IDLE,0,False,0.0,0,True,9.0,0,True,0.0,0.0,0.0,0.0,0.0,0.0,0.0006850257050246,0.9993147850036621,-0.03700152039527893,0.0,0.0,0.0,0,True,0.0006850257050246,0.9993147850036621,-0.03700152039527893,0,True,0.0,0.0,0,0,0
True,0.0,0.0,0.0,0.0,0.0,0.0,0,True,0.0,0.0,0.0,0,False,0.0,0.0,0.0,0,0,False,0,True,0.0,0.0,inf,0,False,0.0,0.0,0.0,0.0,0.0,0.0,0.0,0.0,0.0,0.0,0,True,STATE_IDLE,0,False,0.0,0,True,9.0,0,True,0.0,0.0,0.0,0.0,0.0,0.0,0.0006850257050246,0.9993147850036621,-0.03700152039527893,0.0,0.0,0.0,0,True,0.0006850257050246,0.9993147850036621,-0.03700152039527893,0,True,0.0,0.0,0,0,0
True,-0.35964295268058777,0.280294269323349,9.843876838684082,0.0013360612792894244,-0.004266371950507164,0.005625320598483086,0,True,-0.35964295268058777,0.280294269323349,9.843876838684082,0,False,0.0,0.0,0.0,0,0,False,0,True,288.1499938964844,62.39725875854492,45768.53515625,0,False,0.0,0.0,0.0,0.0,0.0,0.0,0.0,0.0,0.0,0.0,0,True,STATE_IDLE,0,False,0.0,0,True,9.0,0,True,-0.35964295268058777,0.280294269323349,9.843876838684082,0.0013360612792894244,-0.004266371950507164,0.005625320598483086,0.0006850257050246,0.9993147850036621,-0.03700152039527893,0.0,0.0,0.0,0,True,0.0006850257050246,0.9993147850036621,-0.03700152039527893,0,True,288.1499938964844,0.0,62,0,0
True,-0.45246604084968567,0.3316413462162018,9.779155731201172,-0.007946250028908253,0.0008683351916261017,-0.0008468026644550264,0,True,-0.45246604084968567,0.3316413462162018,9.779155731201172,0,False,0.0,0.0,0.0,0,0,False,0,True,288.1499938964844,42.17617416381836,52199.79296875,0,False,0.0,0.0,0.0,0.0,0.0,0.0,0.0,0.0,0.0,0.0,0,True,STATE_LAUNCH_DETECT,0,False,0.0,0,True,9.0,0,True,-0.45246604084968567,0.3316413462162018,9.779155731201172,-0.007946250028908253,0.0008683351916261017,-0.0008468026644550264,0.0006850257050246,0.9993147850036621,-0.03700152039527893,0.0,0.0,0.0,0,True,0.0006850257050246,0.9993147850036621,-0.03700152039527893,0,True,288.1499938964844,0.0,42,0,0
True,-0.41009944677352905,0.3401850461959839,9.964950561523438,-0.0037095905281603336,0.0017227058997377753,0.017732663080096245,0,True,-0.41009944677352905,0.3401850461959839,9.964950561523438,0,False,0.0,0.0,0.0,0,0,False,0,True,288.1499938964844,-11.657315254211426,nan,0,False,0.0,0.0,0.0,0.0,0.0,0.0,0.0,0.0,0.0,0.0,0,True,STATE_LAUNCH_DETECT,0,False,0.0,0,True,9.0,0,True,-0.41009944677352905,0.3401850461959839,9.964950561523438,-0.0037095905281603336,0.0017227058997377753,0.017732663080096245,0.0006850257050246,0.9993147850036621,-0.03700152039527893,0.0,0.0,0.0,0,True,0.0006850257050246,0.9993147850036621,-0.03700152039527893,0,True,288.1499938964844,0.0,4294967285,0,0
True,-0.30620795488357544,0.3315432667732239,9.849184036254883,0.006679560989141464,0.0008585274335928261,0.006156005430966616,0,True,-0.30620795488357544,0.3315432667732239,9.849184036254883,0,False,0.0,0.0,0.0,0,0,False,0,True,288.1499938964844,-70.46257019042969,nan,0,False,0.0,0.0,0.0,0.0,0.0,0.0,0.0,0.0,0.0,0.0,0,True,STATE_LAUNCH_DETECT,0,False,0.0,0,True,9.0,0,True,-0.30620795488357544,0.3315432667732239,9.849184036254883,0.006679560989141464,0.0008585274335928261,0.006156005430966616,0.0006850257050246,0.9993147850036621,-0.03700152039527893,0.0,0.0,0.0,0,True,0.0006850257050246,0.9993147850036621,-0.03700152039527893,0,True,288.1499938964844,0.0,4294967226,0,0
True,-0.3611191511154175,0.4471321702003479,9.781838417053223,0.0011884408304467797,0.012417417019605637,-0.0005784952081739902,0,True,-0.3611191511154175,0.4471321702003479,9.781838417053223,0,False,0.0,0.0,0.0,0,0,False,0,True,288.1499938964844,-16.840147018432617,nan,0,False,0.0,0.0,0.0,0.0,0.0,0.0,0.0,0.0,0.0,0.0,0,True,STATE_LAUNCH_DETECT,0,False,0.0,0,True,9.0,0,True,-0.3611191511154175,0.4471321702003479,9.781838417053223,0.0011884408304467797,0.012417417019605637,-0.0005784952081739902,0.0006850257050246,0.9993147850036621,-0.03700152039527893,0.0,0.0,0.0,0,True,0.0006850257050246,0.9993147850036621,-0.03700152039527893,0,True,288.1499938964844,0.0,4294967280,0,0
True,-0.28542208671569824,0.047300685197114944,9.932154655456543,0.00875814538449049,-0.0275657307356596,0.014453127980232239,0,True,-0.28542208671569824,0.047300685197114944,9.932154655456543,0,False,0.0,0.0,0.0,0,0,False,0,True,288.1499938964844,127.86994171142578,33987.1171875,0,False,0.0,0.0,0.0,0.0,0.0,0.0,0.0,0.0,0.0,0.0,0,True,STATE_LAUNCH_DETECT,0,False,0.0,0,True,9.0,0,True,-0.28542208671569824,0.047300685197114944,9.932154655456543,0.00875814538449049,-0.0275657307356596,0.014453127980232239,0.0006850257050246,0.9993147850036621,-0.03700152039527893,0.0,0.0,0.0,0,True,0.0006850257050246,0.9993147850036621,-0.03700152039527893,0,True,288.1499938964844,0.0,127,0,0
True,-0.4013419449329376,0.4533018469810486,9.761882781982422,-0.002833838341757655,0.01303438562899828,-0.0025740780401974916,0,True,-0.4013419449329376,0.4533018469810486,9.761882781982422,0,False,0.0,0.0,0.0,0,0,False,0,True,288.1499938964844,-25.99828338623047,nan,0,False,0.0,0.0,0.0,0.0,0.0,0.0,0.0,0.0,0.0,0.0,0,True,STATE_LAUNCH_DETECT,0,False,0.0,0,True,9.0,0,True,-0.4013419449329376,0.4533018469810486,9.761882781982422,-0.002833838341757655,0.01303438562899828,-0.0025740780401974916,0.0006850257050246,0.9993147850036621,-0.03700152039527893,0.0,0.0,0.0,0,True,0.0006850257050246,0.9993147850036621,-0.03700152039527893,0,True,288.1499938964844,0.0,4294967271,0,0
True,-0.54966139793396,0.3906170427799225,10.04467487335205,-0.017665784806013107,0.006765906233340502,0.025705154985189438,0,True,-0.54966139793396,0.3906170427799225,10.04467487335205,0,False,0.0,0.0,0.0,0,0,False,0,True,288.1499938964844,152.5774688720703,31086.330078125,0,False,0.0,0.0,0.0,0.0,0.0,0.0,0.0,0.0,0.0,0.0,0,True,STATE_LAUNCH_DETECT,0,False,0.0,0,True,9.0,0,True,-0.54966139793396,0.3906170427799225,10.04467487335205,-0.017665784806013107,0.006765906233340502,0.025705154985189438,0.0006850257050246,0.9993147850036621,-0.03700152039527893,0.0,0.0,0.0,0,True,0.0006850257050246,0.9993147850036621,-0.03700152039527893,0,True,288.1499938964844,0.0,152,0,0
True,-0.37843748927116394,0.45293742418289185,9.95466423034668,-0.0005433950573205948,0.012997944839298725,0.016704056411981583,0,True,-0.37843748927116394,0.45293742418289185,9.95466423034668,0,False,0.0,0.0,0.0,0,0,False,0,True,288.1499938964844,-90.10224151611328,nan,0,False,0.0,0.0,0.0,0.0,0.0,0.0,0.0,0.0,0.0,0.0,0,True,STATE_LAUNCH_DETECT,0,False,0.0,0,True,9.0,0,True,-0.37843748927116394,0.45293742418289185,9.95466423034668,-0.0005433950573205948,0.012997944839298725,0.016704056411981583,0.0006850257050246,0.9993147850036621,-0.03700152039527893,0.0,0.0,0.0,0,True,0.0006850257050246,0.9993147850036621,-0.03700152039527893,0,True,288.1499938964844,0.0,4294967206,0,0
True,-0.41260817646980286,0.24993427097797394,10.02228832244873,-0.003960460890084505,-0.007302372250705957,0.023466451093554497,0,True,-0.41260817646980286,0.24993427097797394,10.02228832244873,0,False,0.0,0.0,0.0,0,0,False,0,True,288.1499938964844,14.474658966064453,69760.546875,0,False,0.0,0.0,0.0,0.0,0.0,0.0,0.0,0.0,0.0,0.0,0,True,STATE_LAUNCH_DETECT,0,False,0.0,0,True,9.0,0,True,-0.41260817646980286,0.24993427097797394,10.02228832244873,-0.003960460890084505,-0.007302372250705957,0.023466451093554497,0.0006850257050246,0.9993147850036621,-0.03700152039527893,0.0,0.0,0.0,0,True,0.0006850257050246,0.9993147850036621,-0.03700152039527893,0,True,288.1499938964844,0.0,14,0,0
True,-0.33852654695510864,0.3703298270702362,9.995804786682129,0.003447700059041381,0.004737183917313814,0.02081807516515255,0,True,-0.33852654695510864,0.3703298270702362,9.995804786682129,0,False,0.0,0.0,0.0,0,0,False,0,True,288.1499938964844,47.0152473449707,50416.28125,0,False,0.0,0.0,0.0,0.0,0.0,0.0,0.0,0.0,0.0,0.0,0,True,STATE_LAUNCH_DETECT,0,False,0.0,0,True,9.0,0,True,-0.33852654695510864,0.3703298270702362,9.995804786682129,0.003447700059041381,0.004737183917313814,0.02081807516515255,0.0006850257050246,0.9993147850036621,-0.03700152039527893,0.0,0.0,0.0,0,True,0.0006850257050246,0.9993147850036621,-0.03700152039527893,0,True,288.1499938964844,0.0,47,0,0
True,-0.49354201555252075,0.2699533700942993,9.766539573669434,-0.012053846381604671,-0.0053004608489573,-0.002108405577018857,0,True,-0.49354201555252075,0.2699533700942993,9.766539573669434,0,False,0.0,0.0,0.0,0,0,False,0,True,288.1499938964844,85.80594635009766,40537.578125,0,False,0.0,0.0,0.0,0.0,0.0,0.0,0.0,0.0,0.0,0.0,0,True,STATE_LAUNCH_DETECT,0,False,0.0,0,True,9.0,0,True,-0.49354201555252075,0.2699533700942993,9.766539573669434,-0.012053846381604671,-0.0053004608489573,-0.002108405577018857,0.0006850257050246,0.9993147850036621,-0.03700152039527893,0.0,0.0,0.0,0,True,0.0006850257050246,0.9993147850036621,-0.03700152039527893,0,True,288.1499938964844,0.0,85,0,0
True,-0.28311291337013245,0.43622294068336487,9.779412269592285,0.008989064022898674,0.011326496489346027,-0.0008211227832362056,0,True,-0.28311291337013245,0.43622294068336487,9.779412269592285,0,False,0.0,0.0,0.0,0,0,False,0,True,288.1499938964844,68.03411865234375,44348.37890625,0,False,0.0,0.0,0.0,0.0,0.0,0.0,0.0,0.0,0.0,0.0,0,True,STATE_LAUNCH_DETECT,0,False,0.0,0,True,9.0,0,True,-0.28311291337013245,0.43622294068336487,9.779412269592285,0.008989064022898674,0.011326496489346027,-0.0008211227832362056,0.0006850257050246,0.9993147850036621,-0.03700152039527893,0.0,0.0,0.0,0,True,0.0006850257050246,0.9993147850036621,-0.03700152039527893,0,True,288.1499938964844,0.0,68,0,0
True,-0.2362436205148697,0.3366197645664215,9.909783363342285,0.013675992377102375,0.0013661787379533052,0.012215999886393547,0,True,-0.2362436205148697,0.3366197645664215,9.909783363342285,0,False,0.0,0.0,0.0,0,0,False,0,True,288.1499938964844,-14.393572807312012,nan,0,False,0.0,0.0,0.0,0.0,0.0,0.0,0.0,0.0,0.0,0.0,0,True,STATE_LAUNCH_DETECT,0,False,0.0,0,True,9.0,0,True,-0.2362436205148697,0.3366197645664215,9.909783363342285,0.013675992377102375,0.0013661787379533052,0.012215999886393547,0.0006850257050246,0.9993147850036621,-0.03700152039527893,0.0,0.0,0.0,0,True,0.0006850257050246,0.9993147850036621,-0.03700152039527893,0,True,288.1499938964844,0.0,4294967282,0,0
True,-0.30380597710609436,0.3520808517932892,9.827284812927246,0.006919757928699255,0.0029122852720320225,0.0039661661721765995,0,True,-0.30380597710609436,0.3520808517932892,9.827284812927246,0,False,0.0,0.0,0.0,0,0,False,0,True,288.1499938964844,11.572961807250977,73434.2265625,0,False,0.0,0.0,0.0,0.0,0.0,0.0,0.0,0.0,0.0,0.0,0,True,STATE_LAUNCH_DETECT,0,False,0.0,0,True,9.0,0,True,-0.30380597710609436,0.3520808517932892,9.827284812927246,0.006919757928699255,0.0029122852720320225,0.0039661661721765995,0.0006850257050246,0.9993147850036621,-0.03700152039527893,0.0,0.0,0.0,0,True,0.0006850257050246,0.9993147850036621,-0.03700152039527893,0,True,288.1499938964844,0.0,11,0,0
True,-0.3274765908718109,0.44874700903892517,9.673212051391602,0.004552697762846947,0.012578901834785938,-0.011441152542829514,0,True,-0.3274765908718109,0.44874700903892517,9.673212051391602,0,False,0.0,0.0,0.0,0,0,False,0,True,288.1499938964844,-67.65068817138672,nan,0,False,0.0,0.0,0.0,0.0,0.0,0.0,0.0,0.0,0.0,0.0,0,True,STATE_LAUNCH_DETECT,0,False,0.0,0,True,9.0,0,True,-0.3274765908718109,0.44874700903892517,9.673212051391602,0.004552697762846947,0.012578901834785938,-0.011441152542829514,0.0006850257050246,0.9993147850036621,-0.03700152039527893,0.0,0.0,0.0,0,True,0.0006850257050246,0.9993147850036621,-0.03700152039527893,0,True,288.1499938964844,0.0,4294967229,0,0
True,-0.37584471702575684,0.5253201723098755,9.695921897888184,-0.0002841172681655735,0.020236220210790634,-0.009170171804726124,0,True,-0.37584471702575684,0.5253201723098755,9.695921897888184,0,False,0.0,0.0,0.0,0,0,False,0,True,288.1499938964844,122.67289733886719,34668.4296875,0,False,0.0,0.0,0.0,0.0,0.0,0.0,0.0,0.0,0.0,0.0,0,True,STATE_LAUNCH_DETECT,0,False,0.0,0,True,9.0,0,True,-0.37584471702575684,0.5253201723098755,9.695921897888184,-0.0002841172681655735,0.020236220210790634,-0.009170171804726124,0.0006850257050246,0.9993147850036621,-0.03700152039527893,0.0,0.0,0.0,0,True,0.0006850257050246,0.9993147850036621,-0.03700152039527893,0,True,288.1499938964844,0.0,122,0,0
True,-0.22245147824287415,0.32919690012931824,9.776006698608398,0.015055207535624504,0.0006238918867893517,-0.0011616575066000223,0,True,-0.22245147824287415,0.32919690012931824,9.776006698608398,0,False,0.0,0.0,0.0,0,0,False,0,True,288.1499938964844,83.44670867919922,40995.375,0,False,0.0,0.0,0.0,0.0,0.0,0.0,0.0,0.0,0.0,0.0,0,True,STATE_LAUNCH_DETECT,0,False,0.0,0,True,9.0,0,True,-0.22245147824287415,0.32919690012931824,9.776006698608398,0.015055207535624504,0.0006238918867893517,-0.0011616575066000223,0.0006850257050246,0.9993147850036621,-0.03700152039527893,0.0,0.0,0.0,0,True,0.0006850257050246,0.9993147850036621,-0.03700152039527893,0,True,288.1499938964844,0.0,83,0,0
True,-0.18706989288330078,0.24916335940361023,9.854663848876953,0.01859336718916893,-0.007379462476819754,0.006704072933644056,0,True,-0.18706989288330078,0.24916335940361023,9.854663848876953,0,False,0.0,0.0,0.0,0,0,False,0,True,288.1499938964844,-84.3883056640625,nan,0,False,0.0,0.0,0.0,0.0,0.0,0.0,0.0,0.0,0.0,0.0,0,True,STATE_LAUNCH_DETECT,0,False,0.0,0,True,9.0,0,True,-0.18706989288330078,0.24916335940361023,9.854663848876953,0.01859336718916893,-0.007379462476819754,0.006704072933644056,0.0006850257050246,0.9993147850036621,-0.03700152039527893,0.0,0.0,0.0,0,True,0.0006850257050246,0.9993147850036621,-0.03700152039527893,0,True,288.1499938964844,0.0,4294967212,0,0
True,-0.5433809757232666,0.4502119719982147,9.68982219696045,-0.01703774183988571,0.012725398875772953,-0.009780089370906353,0,True,-0.5433809757232666,0.4502119719982147,9.68982219696045,0,False,0.0,0.0,0.0,0,0,False,0,True,288.1499938964844,-32.59037780761719,nan,0,False,0.0,0.0,0.0,0.0,0.0,0.0,0.0,0.0,0.0,0.0,0,True,STATE_LAUNCH_DETECT,0,False,0.0,0,True,9.0,0,True,-0.5433809757232666,0.4502119719982147,9.68982219696045,-0.01703774183988571,0.012725398875772953,-0.009780089370906353,0.0006850257050246,0.9993147850036621,-0.03700152039527893,0.0,0.0,0.0,0,True,0.0006850257050246,0.9993147850036621,-0.03700152039527893,0,True,288.1499938964844,0.0,4294967264,0,0
True,-0.3200729489326477,0.439359575510025,9.677480697631836,0.005293061025440693,0.011640157550573349,-0.011014268733561039,0,True,-0.3200729489326477,0.439359575510025,9.677480697631836,0,False,0.0,0.0,0.0,0,0,False,0,True,288.1499938964844,63.601558685302734,45454.6328125,0,False,0.0,0.0,0.0,0.0,0.0,0.0,0.0,0.0,0.0,0.0,0,True,STATE_LAUNCH_DETECT,0,False,0.0,0,True,9.0,0,True,-0.3200729489326477,0.439359575510025,9.677480697631836,0.005293061025440693,0.011640157550573349,-0.011014268733561039,0.0006850257050246,0.9993147850036621,-0.03700152039527893,0.0,0.0,0.0,0,True,0.0006850257050246,0.9993147850036621,-0.03700152039527893,0,True,288.1499938964844,0.0,63,0,0
True,-0.26003754138946533,0.3600804805755615,9.80817699432373,0.011296601966023445,0.0037122496869415045,0.002055369084700942,0,True,-0.26003754138946533,0.3600804805755615,9.80817699432373,0,False,0.0,0.0,0.0,0,0,False,0,True,288.1499938964844,151.09237670898438,31246.9375,0,False,0.0,0.0,0.0,0.0,0.0,0.0,0.0,0.0,0.0,0.0,0,True,STATE_LAUNCH_DETECT,0,False,0.0,0,True,9.0,0,True,-0.26003754138946533,0.3600804805755615,9.80817699432373,0.011296601966023445,0.0037122496869415045,0.002055369084700942,0.0006850257050246,0.9993147850036621,-0.03700152039527893,0.0,0.0,0.0,0,True,0.0006850257050246,0.9993147850036621,-0.03700152039527893,0,True,288.1499938964844,0.0,151,0,0
True,-0.21223096549510956,0.441211998462677,9.747344017028809,0.016077257692813873,0.011825401335954666,-0.004027923569083214,0,True,-0.21223096549510956,0.441211998462677,9.747344017028809,0,False,0.0,0.0,0.0,0,0,False,0,True,288.1499938964844,225.2749786376953,24688.18359375,0,False,0.0,0.0,0.0,0.0,0.0,0.0,0.0,0.0,0.0,0.0,0,True,STATE_LAUNCH_DETECT,0,False,0.0,0,True,9.0,0,True,-0.21223096549510956,0.441211998462677,9.747344017028809,0.016077257692813873,0.011825401335954666,-0.004027923569083214,0.0006850257050246,0.9993147850036621,-0.03700152039527893,0.0,0.0,0.0,0,True,0.0006850257050246,0.9993147850036621,-0.03700152039527893,0,True,288.1499938964844,0.0,225,0,0
True,-0.2960484027862549,0.2659754455089569,9.806001663208008,0.0076955147087574005,-0.005698254331946373,0.0018378207460045815,0,True,-0.2960484027862549,0.2659754455089569,9.806001663208008,0,False,0.0,0.0,0.0,0,0,False,0,True,288.1499938964844,-14.15571117401123,nan,0,False,0.0,0.0,0.0,0.0,0.0,0.0,0.0,0.0,0.0,0.0,0,True,STATE_LAUNCH_DETECT,0,False,0.0,0,True,9.0,0,True,-0.2960484027862549,0.2659754455089569,9.806001663208008,0.0076955147087574005,-0.005698254331946373,0.0018378207460045815,0.0006850257050246,0.9993147850036621,-0.03700152039527893,0.0,0.0,0.0,0,True,0.0006850257050246,0.9993147850036621,-0.03700152039527893,0,True,288.1499938964844,0.0,4294967282,0,0
True,-0.28812214732170105,0.36615514755249023,9.926380157470703,0.008488141931593418,0.004319715313613415,0.01387565303593874,0,True,-0.28812214732170105,0.36615514755249023,9.926380157470703,0,False,0.0,0.0,0.0,0,0,False,0,True,288.1499938964844,-97.84207153320312,nan,0,False,0.0,0.0,0.0,0.0,0.0,0.0,0.0,0.0,0.0,0.0,0,True,STATE_LAUNCH_DETECT,0,False,0.0,0,True,9.0,0,True,-0.28812214732170105,0.36615514755249023,9.926380157470703,0.008488141931593418,0.004319715313613415,0.01387565303593874,0.0006850257050246,0.9993147850036621,-0.03700152039527893,0.0,0.0,0.0,0,True,0.0006850257050246,0.9993147850036621,-0.03700152039527893,0,True,288.1499938964844,0.0,4294967199,0,0
True,-0.30487722158432007,0.27264368534088135,9.679912567138672,0.006812633015215397,-0.005031429696828127,-0.010771120898425579,0,True,-0.30487722158432007,0.27264368534088135,9.679912567138672,0,False,0.0,0.0,0.0,0,0,False,0,True,288.1499938964844,143.19808959960938,32128.091796875,0,False,0.0,0.0,0.0,0.0,0.0,0.0,0.0,0.0,0.0,0.0,0,True,STATE_LAUNCH_DETECT,0,False,0.0,0,True,9.0,0,True,-0.30487722158432007,0.27264368534088135,9.679912567138672,0.006812633015215397,-0.005031429696828127,-0.010771120898425579,0.0006850257050246,0.9993147850036621,-0.03700152039527893,0.0,0.0,0.0,0,True,0.0006850257050246,0.9993147850036621,-0.03700152039527893,0,True,288.1499938964844,0.0,143,0,0
True,-0.43910089135169983,0.2952442467212677,9.770976066589355,-0.006609733682125807,-0.002771373838186264,-0.001664751791395247,0,True,-0.43910089135169983,0.2952442467212677,9.770976066589355,0,False,0.0,0.0,0.0,0,0,False,0,True,288.1499938964844,0.7492782473564148,118381.6953125,0,False,0.0,0.0,0.0,0.0,0.0,0.0,0.0,0.0,0.0,0.0,0,True,STATE_LAUNCH_DETECT,0,False,0.0,0,True,9.0,0,True,-0.43910089135169983,0.2952442467212677,9.770976066589355,-0.006609733682125807,-0.002771373838186264,-0.001664751791395247,0.0006850257050246,0.9993147850036621,-0.03700152039527893,0.0,0.0,0.0,0,True,0.0006850257050246,0.9993147850036621,-0.03700152039527893,0,True,288.1499938964844,0.0,0,0,0
True,-0.2138916701078415,0.46101853251457214,9.696182250976562,0.01591118797659874,0.01380605436861515,-0.009144160896539688,0,True,-0.2138916701078415,0.46101853251457214,9.696182250976562,0,False,0.0,0.0,0.0,0,0,False,0,True,288.1499938964844,-75.51981353759766,nan,0,False,0.0,0.0,0.0,0.0,0.0,0.0,0.0,0.0,0.0,0.0,0,True,STATE_LAUNCH_DETECT,0,False,0.0,0,True,9.0,0,True,-0.2138916701078415,0.46101853251457214,9.696182250976562,0.01591118797659874,0.01380605436861515,-0.009144160896539688,0.0006850257050246,0.9993147850036621,-0.03700152039527893,0.0,0.0,0.0,0,True,0.0006850257050246,0.9993147850036621,-0.03700152039527893,0,True,288.1499938964844,0.0,4294967221,0,0
True,-0.42689967155456543,0.17552708089351654,9.880874633789062,-0.005389611702412367,-0.01474309153854847,0.00932508148252964,0,True,-0.42689967155456543,0.17552708089351654,9.880874633789062,0,False,0.0,0.0,0.0,0,0,False,0,True,288.1499938964844,204.8612518310547,26247.92578125,0,False,0.0,0.0,0.0,0.0,0.0,0.0,0.0,0.0,0.0,0.0,0,True,STATE_LAUNCH_DETECT,0,False,0.0,0,True,9.0,0,True,-0.42689967155456543,0.17552708089351654,9.880874633789062,-0.005389611702412367,-0.01474309153854847,0.00932508148252964,0.0006850257050246,0.9993147850036621,-0.03700152039527893,0.0,0.0,0.0,0,True,0.0006850257050246,0.9993147850036621,-0.03700152039527893,0,True,288.1499938964844,0.0,204,0,0
True,-0.2736911177635193,0.37926989793777466,9.916823387145996,0.00993124209344387,0.005631191655993462,0.012919952161610126,0,True,-0.2736911177635193,0.37926989793777466,9.916823387145996,0,False,0.0,0.0,0.0,0,0,False,0,True,288.1499938964844,-0.9841310381889343,nan,0,False,0.0,0.0,0.0,0.0,0.0,0.0,0.0,0.0,0.0,0.0,0,True,STATE_LAUNCH_DETECT,0,False,0.0,0,True,9.0,0,True,-0.2736911177635193,0.37926989793777466,9.916823387145996,0.00993124209344387,0.005631191655993462,0.012919952161610126,0.0006850257050246,0.9993147850036621,-0.03700152039527893,0.0,0.0,0.0,0,True,0.0006850257050246,0.9993147850036621,-0.03700152039527893,0,True,288.1499938964844,0.0,0,0,0
True,-0.4337446689605713,0.3380831182003021,9.809988975524902,-0.00607411190867424,0.0015125144273042679,0.002236524596810341,0,True,-0.4337446689605713,0.3380831182003021,9.809988975524902,0,True,0.0,0.0,0.0,4,3,True,0,True,288.1499938964844,-86.45832061767578,nan,0,False,0.0,0.0,0.0,0.0,0.0,0.0,0.0,0.0,0.0,0.0,0,True,STATE_LAUNCH_DETECT,0,False,0.0,0,True,9.0,0,True,-0.4337446689605713,0.3380831182003021,9.809988975524902,-0.00607411190867424,0.0015125144273042679,0.002236524596810341,0.0006850257050246,0.9993147850036621,-0.03700152039527893,0.0,0.0,0.0,0,True,0.0006850257050246,0.9993147850036621,-0.03700152039527893,0,True,288.1499938964844,0.0,4294967210,0,0
True,-0.3106083869934082,0.2327444851398468,9.512938499450684,0.006239516194909811,-0.009021349251270294,-0.027468465268611908,0,True,-0.3106083869934082,0.2327444851398468,9.512938499450684,0,False,0.0,0.0,0.0,0,0,False,0,True,288.1499938964844,180.71192932128906,28307.5,0,False,0.0,0.0,0.0,0.0,0.0,0.0,0.0,0.0,0.0,0.0,0,True,STATE_LAUNCH_DETECT,0,False,0.0,0,True,9.0,0,True,-0.3106083869934082,0.2327444851398468,9.512938499450684,0.006239516194909811,-0.009021349251270294,-0.027468465268611908,0.0006850257050246,0.9993147850036621,-0.03700152039527893,0.0,0.0,0.0,0,True,0.0006850257050246,0.9993147850036621,-0.03700152039527893,0,True,288.1499938964844,0.0,180,0,0
True,-0.39269116520881653,0.37939056754112244,9.847484588623047,-0.0019687602762132883,0.00564325787127018,0.005986067932099104,0,True,-0.39269116520881653,0.37939056754112244,9.847484588623047,0,False,0.0,0.0,0.0,0,0,False,0,True,288.1499938964844,81.47151184082031,41388.72265625,0,False,0.0,0.0,0.0,0.0,0.0,0.0,0.0,0.0,0.0,0.0,0,True,STATE_LAUNCH_DETECT,0,False,0.0,0,True,9.0,0,True,-0.39269116520881653,0.37939056754112244,9.847484588623047,-0.0019687602762132883,0.00564325787127018,0.005986067932099104,0.0006850257050246,0.9993147850036621,-0.03700152039527893,0.0,0.0,0.0,0,True,0.0006850257050246,0.9993147850036621,-0.03700152039527893,0,True,288.1499938964844,0.0,81,0,0
True,-0.530637800693512,0.32693952322006226,9.713106155395508,-0.015763424336910248,0.00039815454510971904,-0.007451774552464485,0,True,-0.530637800693512,0.32693952322006226,9.713106155395508,0,False,0.0,0.0,0.0,0,0,False,0,True,288.1499938964844,-10.875093460083008,nan,0,False,0.0,0.0,0.0,0.0,0.0,0.0,0.0,0.0,0.0,0.0,0,True,STATE_LAUNCH_DETECT,0,False,0.0,0,True,9.0,0,True,-0.530637800693512,0.32693952322006226,9.713106155395508,-0.015763424336910248,0.00039815454510971904,-0.007451774552464485,0.0006850257050246,0.9993147850036621,-0.03700152039527893,0.0,0.0,0.0,0,True,0.0006850257050246,0.9993147850036621,-0.03700152039527893,0,True,288.1499938964844,0.0,4294967286,0,0
True,-0.32300615310668945,0.20636051893234253,9.94690990447998,0.004999740514904261,-0.011659746989607811,0.01592867821455002,0,True,-0.32300615310668945,0.20636051893234253,9.94690990447998,0,False,0.0,0.0,0.0,0,0,False,0,True,288.1499938964844,-28.34412384033203,nan,0,False,0.0,0.0,0.0,0.0,0.0,0.0,0.0,0.0,0.0,0.0,0,True,STATE_LAUNCH_DETECT,0,False,0.0,0,True,9.0,0,True,-0.32300615310668945,0.20636051893234253,9.94690990447998,0.004999740514904261,-0.011659746989607811,0.01592867821455002,0.0006850257050246,0.9993147850036621,-0.03700152039527893,0.0,0.0,0.0,0,True,0.0006850257050246,0.9993147850036621,-0.03700152039527893,0,True,288.1499938964844,0.0,4294967268,0,0
True,-0.4200790226459503,0.1338171660900116,9.899051666259766,-0.004707546439021826,-0.018914083018898964,0.011142764240503311,0,True,-0.4200790226459503,0.1338171660900116,9.899051666259766,0,False,0.0,0.0,0.0,0,0,False,0,True,288.1499938964844,-9.207019805908203,nan,0,False,0.0,0.0,0.0,0.0,0.0,0.0,0.0,0.0,0.0,0.0,0,True,STATE_LAUNCH_DETECT,0,False,0.0,0,True,9.0,0,True,-0.4200790226459503,0.1338171660900116,9.899051666259766,-0.004707546439021826,-0.018914083018898964,0.011142764240503311,0.0006850257050246,0.9993147850036621,-0.03700152039527893,0.0,0.0,0.0,0,True,0.0006850257050246,0.9993147850036621,-0.03700152039527893,0,True,288.1499938964844,0.0,4294967287,0,0
True,-0.18326407670974731,0.38633790612220764,9.633052825927734,0.018973946571350098,0.006337990518659353,-0.015457102097570896,0,True,-0.18326407670974731,0.38633790612220764,9.633052825927734,0,False,0.0,0.0,0.0,0,0,False,0,True,288.1499938964844,-24.685312271118164,nan,0,False,0.0,0.0,0.0,0.0,0.0,0.0,0.0,0.0,0.0,0.0,0,True,STATE_LAUNCH_DETECT,0,False,0.0,0,True,9.0,0,True,-0.18326407670974731,0.38633790612220764,9.633052825927734,0.018973946571350098,0.006337990518659353,-0.015457102097570896,0.0006850257050246,0.9993147850036621,-0.03700152039527893,0.0,0.0,0.0,0,True,0.0006850257050246,0.9993147850036621,-0.03700152039527893,0,True,288.1499938964844,0.0,4294967272,0,0
True,-0.4479875862598419,0.33292442560195923,9.754918098449707,-0.007498403079807758,0.0009966439101845026,-0.0032705601770430803,0,True,-0.4479875862598419,0.33292442560195923,9.754918098449707,0,False,0.0,0.0,0.0,0,0,False,0,True,288.1499938964844,-16.60598373413086,nan,0,False,0.0,0.0,0.0,0.0,0.0,0.0,0.0,0.0,0.0,0.0,0,True,STATE_LAUNCH_DETECT,0,False,0.0,0,True,9.0,0,True,-0.4479875862598419,0.33292442560195923,9.754918098449707,-0.007498403079807758,0.0009966439101845026,-0.0032705601770430803,0.0006850257050246,0.9993147850036621,-0.03700152039527893,0.0,0.0,0.0,0,True,0.0006850257050246,0.9993147850036621,-0.03700152039527893,0,True,288.1499938964844,0.0,4294967280,0,0
True,-0.3386193513870239,0.2769017219543457,9.74774169921875,0.0034384187310934067,-0.004605627153068781,-0.003988189622759819,0,True,-0.3386193513870239,0.2769017219543457,9.74774169921875,0,False,0.0,0.0,0.0,0,0,False,0,True,288.1499938964844,13.169599533081055,71312.0703125,0,False,0.0,0.0,0.0,0.0,0.0,0.0,0.0,0.0,0.0,0.0,0,True,STATE_LAUNCH_DETECT,0,False,0.0,0,True,9.0,0,True,-0.3386193513870239,0.2769017219543457,9.74774169921875,0.0034384187310934067,-0.004605627153068781,-0.003988189622759819,0.0006850257050246,0.9993147850036621,-0.03700152039527893,0.0,0.0,0.0,0,True,0.0006850257050246,0.9993147850036621,-0.03700152039527893,0,True,288.1499938964844,0.0,13,0,0
True,-0.421794056892395,0.42280885577201843,9.53892707824707,-0.004879051353782415,0.00998508557677269,-0.02486967295408249,0,True,-0.421794056892395,0.42280885577201843,9.53892707824707,0,False,0.0,0.0,0.0,0,0,False,0,True,288.1499938964844,-94.91439056396484,nan,0,False,0.0,0.0,0.0,0.0,0.0,0.0,0.0,0.0,0.0,0.0,0,True,STATE_LAUNCH_DETECT,0,False,0.0,0,True,9.0,0,True,-0.421794056892395,0.42280885577201843,9.53892707824707,-0.004879051353782415,0.00998508557677269,-0.02486967295408249,0.0006850257050246,0.9993147850036621,-0.03700152039527893,0.0,0.0,0.0,0,True,0.0006850257050246,0.9993147850036621,-0.03700152039527893,0,True,288.1499938964844,0.0,4294967202,0,0
True,-0.2365199625492096,0.33537015318870544,9.935606956481934,0.01364835910499096,0.0012412173673510551,0.014798346906900406,0,True,-0.2365199625492096,0.33537015318870544,9.935606956481934,0,False,0.0,0.0,0.0,0,0,False,0,True,288.1499938964844,102.2735595703125,37654.7890625,0,False,0.0,0.0,0.0,0.0,0.0,0.0,0.0,0.0,0.0,0.0,0,True,STATE_LAUNCH_DETECT,0,False,0.0,0,True,9.0,0,True,-0.2365199625492096,0.33537015318870544,9.935606956481934,0.01364835910499096,0.0012412173673510551,0.014798346906900406,0.0006850257050246,0.9993147850036621,-0.03700152039527893,0.0,0.0,0.0,0,True,0.0006850257050246,0.9993147850036621,-0.03700152039527893,0,True,288.1499938964844,0.0,102,0,0
True,-0.30959048867225647,0.2840852737426758,9.789374351501465,0.006341305561363697,-0.0038872724398970604,0.00017505053256172687,0,True,-0.30959048867225647,0.2840852737426758,9.789374351501465,0,False,0.0,0.0,0.0,0,0,False,0,True,288.1499938964844,-65.59353637695312,nan,0,False,0.0,0.0,0.0,0.0,0.0,0.0,0.0,0.0,0.0,0.0,0,True,STATE_LAUNCH_DETECT,0,False,0.0,0,True,9.0,0,True,-0.30959048867225647,0.2840852737426758,9.789374351501465,0.006341305561363697,-0.0038872724398970604,0.00017505053256172687,0.0006850257050246,0.9993147850036621,-0.03700152039527893,0.0,0.0,0.0,0,True,0.0006850257050246,0.9993147850036621,-0.03700152039527893,0,True,288.1499938964844,0.0,4294967231,0,0
True,-0.4345056712627411,0.2452167570590973,9.83739185333252,-0.0061502112075686455,-0.007774123456329107,0.004976840224117041,0,True,-0.4345056712627411,0.2452167570590973,9.83739185333252,0,False,0.0,0.0,0.0,0,0,False,0,True,288.1499938964844,39.23756408691406,53385.6796875,0,False,0.0,0.0,0.0,0.0,0.0,0.0,0.0,0.0,0.0,0.0,0,True,STATE_LAUNCH_DETECT,0,False,0.0,0,True,9.0,0,True,-0.4345056712627411,0.2452167570590973,9.83739185333252,-0.0061502112075686455,-0.007774123456329107,0.004976840224117041,0.0006850257050246,0.9993147850036621,-0.03700152039527893,0.0,0.0,0.0,0,True,0.0006850257050246,0.9993147850036621,-0.03700152039527893,0,True,288.1499938964844,0.0,39,0,0
True,-0.3500479459762573,0.19975240528583527,9.705785751342773,0.0022955613676458597,-0.012320558540523052,-0.00818377360701561,0,True,-0.3500479459762573,0.19975240528583527,9.705785751342773,0,False,0.0,0.0,0.0,0,0,False,0,True,288.1499938964844,27.047107696533203,59494.9140625,0,False,0.0,0.0,0.0,0.0,0.0,0.0,0.0,0.0,0.0,0.0,0,True,STATE_LAUNCH_DETECT,0,False,0.0,0,True,9.0,0,True,-0.3500479459762573,0.19975240528583527,9.705785751342773,0.0022955613676458597,-0.012320558540523052,-0.00818377360701561,0.0006850257050246,0.9993147850036621,-0.03700152039527893,0.0,0.0,0.0,0,True,0.0006850257050246,0.9993147850036621,-0.03700152039527893,0,True,288.1499938964844,0.0,27,0,0
True,-0.4458256661891937,0.38037046790122986,9.978523254394531,-0.0072822123765945435,0.005741246975958347,0.019089998677372932,0,True,-0.4458256661891937,0.38037046790122986,9.978523254394531,0,False,0.0,0.0,0.0,0,0,False,0,True,288.1499938964844,-49.823829650878906,nan,0,False,0.0,0.0,0.0,0.0,0.0,0.0,0.0,0.0,0.0,0.0,0,True,STATE_LAUNCH_DETECT,0,False,0.0,0,True,9.0,0,True,-0.4458256661891937,0.38037046790122986,9.978523254394531,-0.0072822123765945435,0.005741246975958347,0.019089998677372932,0.0006850257050246,0.9993147850036621,-0.03700152039527893,0.0,0.0,0.0,0,True,0.0006850257050246,0.9993147850036621,-0.03700152039527893,0,True,288.1499938964844,0.0,4294967247,0,0
True,-0.4307917654514313,0.3239477276802063,9.679970741271973,-0.005778822582215071,9.897453855955973e-05,-0.01076524704694748,0,True,-0.4307917654514313,0.3239477276802063,9.679970741271973,0,False,0.0,0.0,0.0,0,0,False,0,True,288.1499938964844,-11.030373573303223,nan,0,False,0.0,0.0,0.0,0.0,0.0,0.0,0.0,0.0,0.0,0.0,0,True,STATE_LAUNCH_DETECT,0,False,0.0,0,True,9.0,0,True,-0.4307917654514313,0.3239477276802063,9.679970741271973,-0.005778822582215071,9.897453855955973e-05,-0.01076524704694748,0.0006850257050246,0.9993147850036621,-0.03700152039527893,0.0,0.0,0.0,0,True,0.0006850257050246,0.9993147850036621,-0.03700152039527893,0,True,288.1499938964844,0.0,4294967285,0,0
True,-0.49612587690353394,0.32891571521759033,9.814004898071289,-0.012312231585383415,0.0005957734538242221,0.0026381025090813637,0,True,-0.49612587690353394,0.32891571521759033,9.814004898071289,0,False,0.0,0.0,0.0,0,0,False,0,True,288.1499938964844,-113.44515991210938,nan,0,False,0.0,0.0,0.0,0.0,0.0,0.0,0.0,0.0,0.0,0.0,0,True,STATE_LAUNCH_DETECT,0,False,0.0,0,True,9.0,0,True,-0.49612587690353394,0.32891571521759033,9.814004898071289,-0.012312231585383415,0.0005957734538242221,0.0026381025090813637,0.0006850257050246,0.9993147850036621,-0.03700152039527893,0.0,0.0,0.0,0,True,0.0006850257050246,0.9993147850036621,-0.03700152039527893,0,True,288.1499938964844,0.0,4294967183,0,0
True,-0.4017983675003052,0.25481897592544556,9.890130996704102,-0.002879480132833123,-0.006813899613916874,0.010250754654407501,0,True,-0.4017983675003052,0.25481897592544556,9.890130996704102,0,False,0.0,0.0,0.0,0,0,False,0,True,288.1499938964844,71.76374816894531,43472.02734375,0,False,0.0,0.0,0.0,0.0,0.0,0.0,0.0,0.0,0.0,0.0,0,True,STATE_LAUNCH_DETECT,0,False,0.0,0,True,9.0,0,True,-0.4017983675003052,0.25481897592544556,9.890130996704102,-0.002879480132833123,-0.006813899613916874,0.010250754654407501,0.0006850257050246,0.9993147850036621,-0.03700152039527893,0.0,0.0,0.0,0,True,0.0006850257050246,0.9993147850036621,-0.03700152039527893,0,True,288.1499938964844,0.0,71,0,0
True,-0.30796438455581665,0.35376954078674316,9.859224319458008,0.006503916811197996,0.003081156173720956,0.0071601117961108685,0,True,-0.30796438455581665,0.35376954078674316,9.859224319458008,0,False,0.0,0.0,0.0,0,0,False,0,True,288.1499938964844,195.9486846923828,26978.302734375,0,False,0.0,0.0,0.0,0.0,0.0,0.0,0.0,0.0,0.0,0.0,0,True,STATE_LAUNCH_DETECT,0,False,0.0,0,True,9.0,0,True,-0.30796438455581665,0.35376954078674316,9.859224319458008,0.006503916811197996,0.003081156173720956,0.0071601117961108685,0.0006850257050246,0.9993147850036621,-0.03700152039527893,0.0,0.0,0.0,0,True,0.0006850257050246,0.9993147850036621,-0.03700152039527893,0,True,288.1499938964844,0.0,195,0,0
True,-0.5533369183540344,0.4233004152774811,9.697927474975586,-0.018033334985375404,0.010034242644906044,-0.008969585411250591,0,True,-0.5533369183540344,0.4233004152774811,9.697927474975586,0,False,0.0,0.0,0.0,0,0,False,0,True,288.1499938964844,-92.73712921142578,nan,0,False,0.0,0.0,0.0,0.0,0.0,0.0,0.0,0.0,0.0,0.0,0,True,STATE_LAUNCH_DETECT,0,False,0.0,0,True,9.0,0,True,-0.5533369183540344,0.4233004152774811,9.697927474975586,-0.018033334985375404,0.010034242644906044,-0.008969585411250591,0.0006850257050246,0.9993147850036621,-0.03700152039527893,0.0,0.0,0.0,0,True,0.0006850257050246,0.9993147850036621,-0.03700152039527893,0,True,288.1499938964844,0.0,4294967204,0,0
True,-0.30753257870674133,0.2769790589809418,9.824978828430176,0.006547096651047468,-0.004597892053425312,0.0037355348467826843,0,True,-0.30753257870674133,0.2769790589809418,9.824978828430176,0,False,0.0,0.0,0.0,0,0,False,0,True,288.1499938964844,28.901262283325195,58406.1640625,0,False,0.0,0.0,0.0,0.0,0.0,0.0,0.0,0.0,0.0,0.0,0,True,STATE_LAUNCH_DETECT,0,False,0.0,0,True,9.0,0,True,-0.30753257870674133,0.2769790589809418,9.824978828430176,0.006547096651047468,-0.004597892053425312,0.0037355348467826843,0.0006850257050246,0.9993147850036621,-0.03700152039527893,0.0,0.0,0.0,0,True,0.0006850257050246,0.9993147850036621,-0.03700152039527893,0,True,288.1499938964844,0.0,28,0,0
True,-0.3009876310825348,0.4991733431816101,9.780340194702148,0.007201591972261667,0.017621533945202827,-0.0007283756858669221,0,True,-0.3009876310825348,0.4991733431816101,9.780340194702148,0,False,0.0,0.0,0.0,0,0,False,0,True,288.1499938964844,111.2880630493164,36267.75390625,0,False,0.0,0.0,0.0,0.0,0.0,0.0,0.0,0.0,0.0,0.0,0,True,STATE_LAUNCH_DETECT,0,False,0.0,0,True,9.0,0,True,-0.3009876310825348,0.4991733431816101,9.780340194702148,0.007201591972261667,0.017621533945202827,-0.0007283756858669221,0.0006850257050246,0.9993147850036621,-0.03700152039527893,0.0,0.0,0.0,0,True,0.0006850257050246,0.9993147850036621,-0.03700152039527893,0,True,288.1499938964844,0.0,111,0,0
True,-0.299397349357605,0.3090569078922272,9.835733413696289,0.007360619958490133,-0.0013901081401854753,0.0048109437339007854,0,True,-0.299397349357605,0.3090569078922272,9.835733413696289,0,False,0.0,0.0,0.0,0,0,False,0,True,288.1499938964844,-19.711162567138672,nan,0,False,0.0,0.0,0.0,0.0,0.0,0.0,0.0,0.0,0.0,0.0,0,True,STATE_LAUNCH_DETECT,0,False,0.0,0,True,9.0,0,True,-0.299397349357605,0.3090569078922272,9.835733413696289,0.007360619958490133,-0.0013901081401854753,0.0048109437339007854,0.0006850257050246,0.9993147850036621,-0.03700152039527893,0.0,0.0,0.0,0,True,0.0006850257050246,0.9993147850036621,-0.03700152039527893,0,True,288.1499938964844,0.0,4294967277,0,0
True,-0.4212958514690399,0.2855810523033142,9.747306823730469,-0.004829229786992073,-0.003737693652510643,-0.004031648393720388,0,True,-0.4212958514690399,0.2855810523033142,9.747306823730469,0,False,0.0,0.0,0.0,0,0,False,0,True,288.1499938964844,-162.6550750732422,nan,0,False,0.0,0.0,0.0,0.0,0.0,0.0,0.0,0.0,0.0,0.0,0,True,STATE_LAUNCH_DETECT,0,False,0.0,0,True,9.0,0,True,-0.4212958514690399,0.2855810523033142,9.747306823730469,-0.004829229786992073,-0.003737693652510643,-0.004031648393720388,0.0006850257050246,0.9993147850036621,-0.03700152039527893,0.0,0.0,0.0,0,True,0.0006850257050246,0.9993147850036621,-0.03700152039527893,0,True,288.1499938964844,0.0,4294967134,0,0
True,-0.4001762568950653,0.24690169095993042,9.935894966125488,-0.0027172714471817017,-0.007605629041790962,0.014827117323875427,0,True,-0.4001762568950653,0.24690169095993042,9.935894966125488,0,False,0.0,0.0,0.0,0,0,False,0,True,288.1499938964844,-15.267073631286621,nan,0,False,0.0,0.0,0.0,0.0,0.0,0.0,0.0,0.0,0.0,0.0,0,True,STATE_LAUNCH_DETECT,0,False,0.0,0,True,9.0,0,True,-0.4001762568950653,0.24690169095993042,9.935894966125488,-0.0027172714471817017,-0.007605629041790962,0.014827117323875427,0.0006850257050246,0.9993147850036621,-0.03700152039527893,0.0,0.0,0.0,0,True,0.0006850257050246,0.9993147850036621,-0.03700152039527893,0,True,288.1499938964844,0.0,4294967281,0,0
True,-0.3450097441673279,0.2919570505619049,9.79451847076416,0.0027993822004646063,-0.0031000946182757616,0.0006895274855196476,0,True,-0.3450097441673279,0.2919570505619049,9.79451847076416,0,False,0.0,0.0,0.0,0,0,False,0,True,288.1499938964844,52.01282501220703,48757.53125,0,False,0.0,0.0,0.0,0.0,0.0,0.0,0.0,0.0,0.0,0.0,0,True,STATE_LAUNCH_DETECT,0,False,0.0,0,True,9.0,0,True,-0.3450097441673279,0.2919570505619049,9.79451847076416,0.0027993822004646063,-0.0031000946182757616,0.0006895274855196476,0.0006850257050246,0.9993147850036621,-0.03700152039527893,0.0,0.0,0.0,0,True,0.0006850257050246,0.9993147850036621,-0.03700152039527893,0,True,288.1499938964844,0.0,52,0,0
True,-0.5529510974884033,0.36726289987564087,9.837008476257324,-0.017994755879044533,0.0044304924085736275,0.0049385083839297295,0,True,-0.5529510974884033,0.36726289987564087,9.837008476257324,0,False,0.0,0.0,0.0,0,0,False,0,True,288.1499938964844,-3.91361665725708,nan,0,False,0.0,0.0,0.0,0.0,0.0,0.0,0.0,0.0,0.0,0.0,0,True,STATE_LAUNCH_DETECT,0,False,0.0,0,True,9.0,0,True,-0.5529510974884033,0.36726289987564087,9.837008476257324,-0.017994755879044533,0.0044304924085736275,0.0049385083839297295,0.0006850257050246,0.9993147850036621,-0.03700152039527893,0.0,0.0,0.0,0,True,0.0006850257050246,0.9993147850036621,-0.03700152039527893,0,True,288.1499938964844,0.0,4294967293,0,0
True,-0.34323233366012573,0.34394150972366333,9.780351638793945,0.00297712255269289,0.0020983507856726646,-0.0007271810318343341,0,True,-0.34323233366012573,0.34394150972366333,9.780351638793945,0,False,0.0,0.0,0.0,0,0,False,0,True,288.1499938964844,-15.183977127075195,nan,0,False,0.0,0.0,0.0,0.0,0.0,0.0,0.0,0.0,0.0,0.0,0,True,STATE_LAUNCH_DETECT,0,False,0.0,0,True,9.0,0,True,-0.34323233366012573,0.34394150972366333,9.780351638793945,0.00297712255269289,0.0020983507856726646,-0.0007271810318343341,0.0006850257050246,0.9993147850036621,-0.03700152039527893,0.0,0.0,0.0,0,True,0.0006850257050246,0.9993147850036621,-0.03700152039527893,0,True,288.1499938964844,0.0,4294967281,0,0
True,-0.5040207505226135,0.29806986451148987,9.784147262573242,-0.013101719319820404,-0.002488811034709215,-0.00034762194263748825,0,True,-0.5040207505226135,0.29806986451148987,9.784147262573242,0,False,0.0,0.0,0.0,0,0,False,0,True,288.1499938964844,-98.29869079589844,nan,0,False,0.0,0.0,0.0,0.0,0.0,0.0,0.0,0.0,0.0,0.0,0,True,STATE_LAUNCH_DETECT,0,False,0.0,0,True,9.0,0,True,-0.5040207505226135,0.29806986451148987,9.784147262573242,-0.013101719319820404,-0.002488811034709215,-0.00034762194263748825,0.0006850257050246,0.9993147850036621,-0.03700152039527893,0.0,0.0,0.0,0,True,0.0006850257050246,0.9993147850036621,-0.03700152039527893,0,True,288.1499938964844,0.0,4294967198,0,0
True,-0.29156696796417236,0.34674760699272156,9.833267211914062,0.008143657818436623,0.002378961304202676,0.004564330447465181,0,True,-0.29156696796417236,0.34674760699272156,9.833267211914062,0,False,0.0,0.0,0.0,0,0,False,0,True,288.1499938964844,-50.30453872680664,nan,0,False,0.0,0.0,0.0,0.0,0.0,0.0,0.0,0.0,0.0,0.0,0,True,STATE_LAUNCH_DETECT,0,False,0.0,0,True,9.0,0,True,-0.29156696796417236,0.34674760699272156,9.833267211914062,0.008143657818436623,0.002378961304202676,0.004564330447465181,0.0006850257050246,0.9993147850036621,-0.03700152039527893,0.0,0.0,0.0,0,True,0.0006850257050246,0.9993147850036621,-0.03700152039527893,0,True,288.1499938964844,0.0,4294967246,0,0
True,-0.29302334785461426,0.2745945453643799,9.727245330810547,0.007998019456863403,-0.004836343694478273,-0.006037846207618713,0,True,-0.29302334785461426,0.2745945453643799,9.727245330810547,0,False,0.0,0.0,0.0,0,0,False,0,True,288.1499938964844,67.17852020263672,44556.1875,0,False,0.0,0.0,0.0,0.0,0.0,0.0,0.0,0.0,0.0,0.0,0,True,STATE_LAUNCH_DETECT,0,False,0.0,0,True,9.0,0,True,-0.29302334785461426,0.2745945453643799,9.727245330810547,0.007998019456863403,-0.004836343694478273,-0.006037846207618713,0.0006850257050246,0.9993147850036621,-0.03700152039527893,0.0,0.0,0.0,0,True,0.0006850257050246,0.9993147850036621,-0.03700152039527893,0,True,288.1499938964844,0.0,67,0,0
True,-0.19262556731700897,0.2980514466762543,9.7520751953125,0.01803779788315296,-0.002490653656423092,-0.0035548764280974865,0,True,-0.19262556731700897,0.2980514466762543,9.7520751953125,0,False,0.0,0.0,0.0,0,0,False,0,True,288.1499938964844,-109.55260467529297,nan,0,False,0.0,0.0,0.0,0.0,0.0,0.0,0.0,0.0,0.0,0.0,0,True,STATE_LAUNCH_DETECT,0,False,0.0,0,True,9.0,0,True,-0.19262556731700897,0.2980514466762543,9.7520751953125,0.01803779788315296,-0.002490653656423092,-0.0035548764280974865,0.0006850257050246,0.9993147850036621,-0.03700152039527893,0.0,0.0,0.0,0,True,0.0006850257050246,0.9993147850036621,-0.03700152039527893,0,True,288.1499938964844,0.0,4294967187,0,0
True,-0.4509797692298889,0.2690129578113556,9.8202486038208,-0.007797622121870518,-0.00539450254291296,0.003262512618675828,0,True,-0.4509797692298889,0.2690129578113556,9.8202486038208,0,True,0.0,0.0,0.0,4,3,True,0,True,288.1499938964844,-85.58181762695312,nan,0,False,0.0,0.0,0.0,0.0,0.0,0.0,0.0,0.0,0.0,0.0,0,True,STATE_LAUNCH_DETECT,0,False,0.0,0,True,9.0,0,True,-0.4509797692298889,0.2690129578113556,9.8202486038208,-0.007797622121870518,-0.00539450254291296,0.003262512618675828,0.0006850257050246,0.9993147850036621,-0.03700152039527893,0.0,0.0,0.0,0,True,0.0006850257050246,0.9993147850036621,-0.03700152039527893,0,True,288.1499938964844,0.0,4294967211,0,0
True,-0.4950740933418274,0.09582614153623581,9.92892837524414,-0.01220705546438694,-0.022713184356689453,0.014130505733191967,0,True,-0.4950740933418274,0.09582614153623581,9.92892837524414,0,False,0.0,0.0,0.0,0,0,False,0,True,288.1499938964844,-85.78480529785156,nan,0,False,0.0,0.0,0.0,0.0,0.0,0.0,0.0,0.0,0.0,0.0,0,True,STATE_LAUNCH_DETECT,0,False,0.0,0,True,9.0,0,True,-0.4950740933418274,0.09582614153623581,9.92892837524414,-0.01220705546438694,-0.022713184356689453,0.014130505733191967,0.0006850257050246,0.9993147850036621,-0.03700152039527893,0.0,0.0,0.0,0,True,0.0006850257050246,0.9993147850036621,-0.03700152039527893,0,True,288.1499938964844,0.0,4294967211,0,0
True,-0.37220147252082825,0.5083558559417725,9.720466613769531,8.020907262107357e-05,0.0185397882014513,-0.006715701427310705,0,True,-0.37220147252082825,0.5083558559417725,9.720466613769531,0,False,0.0,0.0,0.0,0,0,False,0,True,288.1499938964844,9.623425483703613,76463.2890625,0,False,0.0,0.0,0.0,0.0,0.0,0.0,0.0,0.0,0.0,0.0,0,True,STATE_LAUNCH_DETECT,0,False,0.0,0,True,9.0,0,True,-0.37220147252082825,0.5083558559417725,9.720466613769531,8.020907262107357e-05,0.0185397882014513,-0.006715701427310705,0.0006850257050246,0.9993147850036621,-0.03700152039527893,0.0,0.0,0.0,0,True,0.0006850257050246,0.9993147850036621,-0.03700152039527893,0,True,288.1499938964844,0.0,9,0,0
True,-0.4762290418148041,0.36393657326698303,9.730042457580566,-0.010322547517716885,0.004097857046872377,-0.005758145358413458,0,True,-0.4762290418148041,0.36393657326698303,9.730042457580566,0,False,0.0,0.0,0.0,0,0,False,0,True,288.1499938964844,-180.84922790527344,nan,0,False,0.0,0.0,0.0,0.0,0.0,0.0,0.0,0.0,0.0,0.0,0,True,STATE_LAUNCH_DETECT,0,False,0.0,0,True,9.0,0,True,-0.4762290418148041,0.36393657326698303,9.730042457580566,-0.010322547517716885,0.004097857046872377,-0.005758145358413458,0.0006850257050246,0.9993147850036621,-0.03700152039527893,0.0,0.0,0.0,0,True,0.0006850257050246,0.9993147850036621,-0.03700152039527893,0,True,288.1499938964844,0.0,4294967116,0,0
True,-0.4511905610561371,0.4555460810661316,9.8065767288208,-0.00781870074570179,0.01325880829244852,0.0018953531980514526,0,True,-0.4511905610561371,0.4555460810661316,9.8065767288208,0,False,0.0,0.0,0.0,0,0,False,0,True,288.1499938964844,-133.36477661132812,nan,0,False,0.0,0.0,0.0,0.0,0.0,0.0,0.0,0.0,0.0,0.0,0,True,STATE_LAUNCH_DETECT,0,False,0.0,0,True,9.0,0,True,-0.4511905610561371,0.4555460810661316,9.8065767288208,-0.00781870074570179,0.01325880829244852,0.0018953531980514526,0.0006850257050246,0.9993147850036621,-0.03700152039527893,0.0,0.0,0.0,0,True,0.0006850257050246,0.9993147850036621,-0.03700152039527893,0,True,288.1499938964844,0.0,4294967163,0,0
True,-0.40232837200164795,0.4190653860569,9.858064651489258,-0.002932480536401272,0.009610740467905998,0.007044097408652306,0,True,-0.40232837200164795,0.4190653860569,9.858064651489258,0,False,0.0,0.0,0.0,0,0,False,0,True,288.1499938964844,-45.847328186035156,nan,0,False,0.0,0.0,0.0,0.0,0.0,0.0,0.0,0.0,0.0,0.0,0,True,STATE_LAUNCH_DETECT,0,False,0.0,0,True,9.0,0,True,-0.40232837200164795,0.4190653860569,9.858064651489258,-0.002932480536401272,0.009610740467905998,0.007044097408652306,0.0006850257050246,0.9993147850036621,-0.03700152039527893,0.0,0.0,0.0,0,True,0.0006850257050246,0.9993147850036621,-0.03700152039527893,0,True,288.1499938964844,0.0,4294967251,0,0
True,-0.3240529000759125,0.01562575064599514,9.760624885559082,0.004895064048469067,-0.030733224004507065,-0.0026998696848750114,0,True,-0.3240529000759125,0.01562575064599514,9.760624885559082,0,False,0.0,0.0,0.0,0,0,False,0,True,288.1499938964844,18.938398361206055,65346.91015625,0,False,0.0,0.0,0.0,0.0,0.0,0.0,0.0,0.0,0.0,0.0,0,True,STATE_LAUNCH_DETECT,0,False,0.0,0,True,9.0,0,True,-0.3240529000759125,0.01562575064599514,9.760624885559082,0.004895064048469067,-0.030733224004507065,-0.0026998696848750114,0.0006850257050246,0.9993147850036621,-0.03700152039527893,0.0,0.0,0.0,0,True,0.0006850257050246,0.9993147850036621,-0.03700152039527893,0,True,288.1499938964844,0.0,18,0,0
True,-0.23304063081741333,0.26708993315696716,9.826763153076172,0.01399629283696413,-0.005586804822087288,0.003913984168320894,0,True,-0.23304063081741333,0.26708993315696716,9.826763153076172,0,False,0.0,0.0,0.0,0,0,False,0,True,288.1499938964844,-83.86348724365234,nan,0,False,0.0,0.0,0.0,0.0,0.0,0.0,0.0,0.0,0.0,0.0,0,True,STATE_LAUNCH_DETECT,0,False,0.0,0,True,9.0,0,True,-0.23304063081741333,0.26708993315696716,9.826763153076172,0.01399629283696413,-0.005586804822087288,0.003913984168320894,0.0006850257050246,0.9993147850036621,-0.03700152039527893,0.0,0.0,0.0,0,True,0.0006850257050246,0.9993147850036621,-0.03700152039527893,0,True,288.1499938964844,0.0,4294967213,0,0
True,-0.3732661008834839,0.1635909080505371,9.79494571685791,-2.6255052944179624e-05,-0.015936706215143204,0.0007322226301766932,0,True,-0.3732661008834839,0.1635909080505371,9.79494571685791,0,False,0.0,0.0,0.0,0,0,False,0,True,288.1499938964844,7.639702796936035,80253.7734375,0,False,0.0,0.0,0.0,0.0,0.0,0.0,0.0,0.0,0.0,0.0,0,True,STATE_LAUNCH_DETECT,0,False,0.0,0,True,9.0,0,True,-0.3732661008834839,0.1635909080505371,9.79494571685791,-2.6255052944179624e-05,-0.015936706215143204,0.0007322226301766932,0.0006850257050246,0.9993147850036621,-0.03700152039527893,0.0,0.0,0.0,0,True,0.0006850257050246,0.9993147850036621,-0.03700152039527893,0,True,288.1499938964844,0.0,7,0,0
True,-0.28518033027648926,0.21215662360191345,9.79617977142334,0.008782323449850082,-0.011080136522650719,0.0008556389948353171,0,True,-0.28518033027648926,0.21215662360191345,9.79617977142334,0,False,0.0,0.0,0.0,0,0,False,0,True,288.1499938964844,-96.35022735595703,nan,0,False,0.0,0.0,0.0,0.0,0.0,0.0,0.0,0.0,0.0,0.0,0,True,STATE_LAUNCH_DETECT,0,False,0.0,0,True,9.0,0,True,-0.28518033027648926,0.21215662360191345,9.79617977142334,0.008782323449850082,-0.011080136522650719,0.0008556389948353171,0.0006850257050246,0.9993147850036621,-0.03700152039527893,0.0,0.0,0.0,0,True,0.0006850257050246,0.9993147850036621,-0.03700152039527893,0,True,288.1499938964844,0.0,4294967200,0,0
True,-0.47860831022262573,0.3843347132205963,9.810914993286133,-0.0105604762211442,0.006137670949101448,0.0023291308898478746,0,True,-0.47860831022262573,0.3843347132205963,9.810914993286133,0,False,0.0,0.0,0.0,0,0,False,0,True,288.1499938964844,55.112091064453125,47807.14453125,0,False,0.0,0.0,0.0,0.0,0.0,0.0,0.0,0.0,0.0,0.0,0,True,STATE_LAUNCH_DETECT,0,False,0.0,0,True,9.0,0,True,-0.47860831022262573,0.3843347132205963,9.810914993286133,-0.0105604762211442,0.006137670949101448,0.0023291308898478746,0.0006850257050246,0.9993147850036621,-0.03700152039527893,0.0,0.0,0.0,0,True,0.0006850257050246,0.9993147850036621,-0.03700152039527893,0,True,288.1499938964844,0.0,55,0,0
True,-0.294620543718338,0.4030332863330841,9.719970703125,0.007838300429284573,0.008007530122995377,-0.006765289697796106,0,True,-0.294620543718338,0.4030332863330841,9.719970703125,0,False,0.0,0.0,0.0,0,0,False,0,True,288.1499938964844,117.40716552734375,35388.84375,0,False,0.0,0.0,0.0,0.0,0.0,0.0,0.0,0.0,0.0,0.0,0,True,STATE_LAUNCH_DETECT,0,False,0.0,0,True,9.0,0,True,-0.294620543718338,0.4030332863330841,9.719970703125,0.007838300429284573,0.008007530122995377,-0.006765289697796106,0.0006850257050246,0.9993147850036621,-0.03700152039527893,0.0,0.0,0.0,0,True,0.0006850257050246,0.9993147850036621,-0.03700152039527893,0,True,288.1499938964844,0.0,117,0,0
True,-0.173688605427742,0.3843678832054138,9.855143547058105,0.019931495189666748,0.006140988785773516,0.006752031855285168,0,True,-0.173688605427742,0.3843678832054138,9.855143547058105,0,False,0.0,0.0,0.0,0,0,False,0,True,288.1499938964844,-32.53456497192383,nan,0,False,0.0,0.0,0.0,0.0,0.0,0.0,0.0,0.0,0.0,0.0,0,True,STATE_LAUNCH_DETECT,0,False,0.0,0,True,9.0,0,True,-0.173688605427742,0.3843678832054138,9.855143547058105,0.019931495189666748,0.006140988785773516,0.006752031855285168,0.0006850257050246,0.9993147850036621,-0.03700152039527893,0.0,0.0,0.0,0,True,0.0006850257050246,0.9993147850036621,-0.03700152039527893,0,True,288.1499938964844,0.0,4294967264,0,0
True,-0.2541619837284088,0.37571677565574646,9.942359924316406,0.011884155683219433,0.005275879055261612,0.015473665669560432,0,True,-0.2541619837284088,0.37571677565574646,9.942359924316406,0,False,0.0,0.0,0.0,0,0,False,0,True,288.1499938964844,60.06307601928711,46394.57421875,0,False,0.0,0.0,0.0,0.0,0.0,0.0,0.0,0.0,0.0,0.0,0,True,STATE_LAUNCH_DETECT,0,False,0.0,0,True,9.0,0,True,-0.2541619837284088,0.37571677565574646,9.942359924316406,0.011884155683219433,0.005275879055261612,0.015473665669560432,0.0006850257050246,0.9993147850036621,-0.03700152039527893,0.0,0.0,0.0,0,True,0.0006850257050246,0.9993147850036621,-0.03700152039527893,0,True,288.1499938964844,0.0,60,0,0
True,-0.5074691772460938,0.3090157210826874,9.936012268066406,-0.013446561992168427,-0.0013942255172878504,0.01483890414237976,0,True,-0.5074691772460938,0.3090157210826874,9.936012268066406,0,False,0.0,0.0,0.0,0,0,False,0,True,288.1499938964844,-107.33544921875,nan,0,False,0.0,0.0,0.0,0.0,0.0,0.0,0.0,0.0,0.0,0.0,0,True,STATE_LAUNCH_DETECT,0,False,0.0,0,True,9.0,0,True,-0.5074691772460938,0.3090157210826874,9.936012268066406,-0.013446561992168427,-0.0013942255172878504,0.01483890414237976,0.0006850257050246,0.9993147850036621,-0.03700152039527893,0.0,0.0,0.0,0,True,0.0006850257050246,0.9993147850036621,-0.03700152039527893,0,True,288.1499938964844,0.0,4294967189,0,0
True,-0.29310980439186096,0.2745665907859802,9.772381782531738,0.007989374920725822,-0.004839140921831131,-0.0015242249937728047,0,True,-0.29310980439186096,0.2745665907859802,9.772381782531738,0,False,0.0,0.0,0.0,0,0,False,0,True,288.1499938964844,84.04779815673828,40877.51953125,0,False,0.0,0.0,0.0,0.0,0.0,0.0,0.0,0.0,0.0,0.0,0,True,STATE_LAUNCH_DETECT,0,False,0.0,0,True,9.0,0,True,-0.29310980439186096,0.2745665907859802,9.772381782531738,0.007989374920725822,-0.004839140921831131,-0.0015242249937728047,0.0006850257050246,0.9993147850036621,-0.03700152039527893,0.0,0.0,0.0,0,True,0.0006850257050246,0.9993147850036621,-0.03700152039527893,0,True,288.1499938964844,0.0,84,0,0
True,-0.3237457573413849,0.5016734600067139,9.770410537719727,0.004925778601318598,0.017871549353003502,-0.0017212691018357873,0,True,-0.3237457573413849,0.5016734600067139,9.770410537719727,0,False,0.0,0.0,0.0,0,0,False,0,True,288.1499938964844,15.898820877075195,68219.578125,0,False,0.0,0.0,0.0,0.0,0.0,0.0,0.0,0.0,0.0,0.0,0,True,STATE_LAUNCH_DETECT,0,False,0.0,0,True,9.0,0,True,-0.3237457573413849,0.5016734600067139,9.770410537719727,0.004925778601318598,0.017871549353003502,-0.0017212691018357873,0.0006850257050246,0.9993147850036621,-0.03700152039527893,0.0,0.0,0.0,0,True,0.0006850257050246,0.9993147850036621,-0.03700152039527893,0,True,288.1499938964844,0.0,15,0,0
True,-0.5369216799736023,0.389616996049881,9.8031644821167,-0.01639181189239025,0.006665900349617004,0.001554095302708447,0,True,-0.5369216799736023,0.389616996049881,9.8031644821167,0,False,0.0,0.0,0.0,0,0,False,0,True,288.1499938964844,-24.298648834228516,nan,0,False,0.0,0.0,0.0,0.0,0.0,0.0,0.0,0.0,0.0,0.0,0,True,STATE_LAUNCH_DETECT,0,False,0.0,0,True,9.0,0,True,-0.5369216799736023,0.389616996049881,9.8031644821167,-0.01639181189239025,0.006665900349617004,0.001554095302708447,0.0006850257050246,0.9993147850036621,-0.03700152039527893,0.0,0.0,0.0,0,True,0.0006850257050246,0.9993147850036621,-0.03700152039527893,0,True,288.1499938964844,0.0,4294967272,0,0
True,-0.49353864789009094,0.2807813286781311,9.826531410217285,-0.012053510174155235,-0.004217665176838636,0.003890788182616234,0,True,-0.49353864789009094,0.2807813286781311,9.826531410217285,0,False,0.0,0.0,0.0,0,0,False,0,True,288.1499938964844,-53.27866744995117,nan,0,False,0.0,0.0,0.0,0.0,0.0,0.0,0.0,0.0,0.0,0.0,0,True,STATE_LAUNCH_DETECT,0,False,0.0,0,True,9.0,0,True,-0.49353864789009094,0.2807813286781311,9.826531410217285,-0.012053510174155235,-0.004217665176838636,0.003890788182616234,0.0006850257050246,0.9993147850036621,-0.03700152039527893,0.0,0.0,0.0,0,True,0.0006850257050246,0.9993147850036621,-0.03700152039527893,0,True,288.1499938964844,0.0,4294967243,0,0
True,-0.5211937427520752,0.35404568910598755,9.79779052734375,-0.01481902040541172,0.0031087715178728104,0.0010166604770347476,0,True,-0.5211937427520752,0.35404568910598755,9.79779052734375,0,False,0.0,0.0,0.0,0,0,False,0,True,288.1499938964844,2.151704788208008,101059.8671875,0,False,0.0,0.0,0.0,0.0,0.0,0.0,0.0,0.0,0.0,0.0,0,True,STATE_LAUNCH_DETECT,0,False,0.0,0,True,9.0,0,True,-0.5211937427520752,0.35404568910598755,9.79779052734375,-0.01481902040541172,0.0031087715178728104,0.0010166604770347476,0.0006850257050246,0.9993147850036621,-0.03700152039527893,0.0,0.0,0.0,0,True,0.0006850257050246,0.9993147850036621,-0.03700152039527893,0,True,288.1499938964844,0.0,2,0,0
True,-0.4020507037639618,0.3806980550289154,9.840312004089355,-0.0029047143179923296,0.005774007644504309,0.00526883639395237,0,True,-0.4020507037639618,0.3806980550289154,9.840312004089355,0,False,0.0,0.0,0.0,0,0,False,0,True,288.1499938964844,-92.49994659423828,nan,0,False,0.0,0.0,0.0,0.0,0.0,0.0,0.0,0.0,0.0,0.0,0,True,STATE_LAUNCH_DETECT,0,False,0.0,0,True,9.0,0,True,-0.4020507037639618,0.3806980550289154,9.840312004089355,-0.0029047143179923296,0.005774007644504309,0.00526883639395237,0.0006850257050246,0.9993147850036621,-0.03700152039527893,0.0,0.0,0.0,0,True,0.0006850257050246,0.9993147850036621,-0.03700152039527893,0,True,288.1499938964844,0.0,4294967204,0,0
True,-0.2550797462463379,0.142441064119339,9.761651039123535,0.011792379431426525,-0.018051691353321075,-0.0025972812436521053,0,True,-0.2550797462463379,0.142441064119339,9.761651039123535,0,False,0.0,0.0,0.0,0,0,False,0,True,288.1499938964844,47.837581634521484,50131.55859375,0,False,0.0,0.0,0.0,0.0,0.0,0.0,0.0,0.0,0.0,0.0,0,True,STATE_LAUNCH_DETECT,0,False,0.0,0,True,9.0,0,True,-0.2550797462463379,0.142441064119339,9.761651039123535,0.011792379431426525,-0.018051691353321075,-0.0025972812436521053,0.0006850257050246,0.9993147850036621,-0.03700152039527893,0.0,0.0,0.0,0,True,0.0006850257050246,0.9993147850036621,-0.03700152039527893,0,True,288.1499938964844,0.0,47,0,0
